[{"id":"172817","BusinessName":"Archies","AddressLine1":"","AddressLine2":"115b Oxford Road","AddressLine3":"Manchester","PostCode":"M1 7DU","RatingValue":"4","RatingDate":"2021-09-10","Location":{"Latitude":"53.4709548950195","Longitude":"-2.23741292953491"}},{"id":"173082","BusinessName":"Babylon","AddressLine1":"","AddressLine2":"125 Oxford Road","AddressLine3":"Manchester","PostCode":"M1 7DU","RatingValue":"4","RatingDate":"2021-09-10","Location":{"Latitude":"53.470956","Longitude":"-2.237413"}},{"id":"178436","BusinessName":"Dixy Chicken","AddressLine1":"","AddressLine2":"135 Oxford Road","AddressLine3":"Manchester","PostCode":"M1 7DY","RatingValue":"5","RatingDate":"2020-02-24","Location":{"Latitude":"53.4704704284668","Longitude":"-2.23706388473511"}},{"id":"178983","BusinessName":"Eighth Day Cafe","AddressLine1":"The Eighth Day","AddressLine2":"113 Oxford Road","AddressLine3":"Manchester","PostCode":"M1 7DU","RatingValue":"4","RatingDate":"2019-02-11","Location":{"Latitude":"53.470955","Longitude":"-2.237413"}},{"id":"179505","BusinessName":"Falafil Express","AddressLine1":"","AddressLine2":"127a Oxford Road","AddressLine3":"Manchester","PostCode":"M1 7DY","RatingValue":"4","RatingDate":"2018-09-27","Location":{"Latitude":"53.4706405","Longitude":"-2.2372137"}},{"id":"183167","BusinessName":"Ibis Hotel","AddressLine1":"Ibis Hotel","AddressLine2":"Charles Street","AddressLine3":"Manchester","PostCode":"M1 7DG","RatingValue":"5","RatingDate":"2020-01-23","Location":{"Latitude":"53.474174","Longitude":"-2.236919"}},{"id":"183214","BusinessName":"IceStone Gelato","AddressLine1":"","AddressLine2":"131 Oxford Road","AddressLine3":"Manchester","PostCode":"M1 7DY","RatingValue":"4","RatingDate":"2019-09-27","Location":{"Latitude":"53.470471","Longitude":"-2.237064"}},{"id":"185279","BusinessName":"Lass O'Gowrie","AddressLine1":"","AddressLine2":"36 Charles Street","AddressLine3":"Manchester","PostCode":"M1 7DB","RatingValue":"5","RatingDate":"2019-01-23","Location":{"Latitude":"53.474117","Longitude":"-2.23835"}},{"id":"191195","BusinessName":"Nibble At Enigma","AddressLine1":"Floor 3, Renold Building","AddressLine2":"32a Altrincham Street","AddressLine3":"Manchester","PostCode":"M1 7DN","RatingValue":"5","RatingDate":"2020-01-23","Location":{"Latitude":"53.4730987548828","Longitude":"-2.23579597473145"}},{"id":"192441","BusinessName":"One Plus","AddressLine1":"","AddressLine2":"42 Charles Street","AddressLine3":"Manchester","PostCode":"M1 7DB","RatingValue":"4","RatingDate":"2019-02-20","Location":{"Latitude":"53.4739456","Longitude":"-2.2384522"}}]